Park_Code,Name,Designation,States,Latitude,Longitude,Description,URL,Country,UNESCO_Year
L_ANSE,L'Anse aux Meadows National Historic Site,UNESCO World Heritage Site (Cultural),Newfoundland and Labrador,51.6000,-55.5333,"L'Anse aux Meadows National Historic Site - UNESCO World Heritage Site. Only authenticated Norse site in North America, evidence of Viking presence around 1000 CE.",https://whc.unesco.org/en/list/4,Canada,1978
NAHANNI,Nahanni National Park,UNESCO World Heritage Site (Natural),Northwest Territories,61.6000,-125.8500,"Nahanni National Park - UNESCO World Heritage Site. Remote wilderness with Virginia Falls, deep canyons, and pristine rivers in the Mackenzie Mountains.",https://whc.unesco.org/en/list/24,Canada,1978
DINOSAUR,Dinosaur Provincial Park,UNESCO World Heritage Site (Natural),Alberta,50.7667,-111.4833,"Dinosaur Provincial Park - UNESCO World Heritage Site. One of the world's richest dinosaur fossil sites with over 150 complete skeletons discovered.",https://whc.unesco.org/en/list/71,Canada,1979
KLUANE,Kluane / Wrangell-St. Elias / Glacier Bay / Tatshenshini-Alsek,UNESCO World Heritage Site (Natural),Yukon,60.5667,-138.4000,"Kluane National Park - UNESCO World Heritage Site. Transboundary park with Canada's highest peak (Mount Logan) and vast icefields.",https://whc.unesco.org/en/list/72,Canada,1979
HEAD_SMASHED,Head-Smashed-In Buffalo Jump,UNESCO World Heritage Site (Cultural),Alberta,49.7500,-113.6333,"Head-Smashed-In Buffalo Jump - UNESCO World Heritage Site. Prehistoric buffalo hunting site used for over 5,500 years by Indigenous peoples.",https://whc.unesco.org/en/list/158,Canada,1981
SGANG_GWAAY,SGang Gwaay,UNESCO World Heritage Site (Cultural),British Columbia,52.1000,-131.2167,"SGang Gwaay (Anthony Island) - UNESCO World Heritage Site. Haida village site with the largest collection of Haida totem poles in their original locations.",https://whc.unesco.org/en/list/157,Canada,1981
WOOD_BUFFALO,Wood Buffalo National Park,UNESCO World Heritage Site (Natural),"Alberta, Northwest Territories",59.3833,-112.9833,"Wood Buffalo National Park - UNESCO World Heritage Site. Canada's largest national park, home to the world's largest free-roaming bison herd.",https://whc.unesco.org/en/list/256,Canada,1983
CANADIAN_ROCKIES,Canadian Rocky Mountain Parks,UNESCO World Heritage Site (Natural),Alberta,51.1784,-115.5708,"Canadian Rocky Mountain Parks - UNESCO World Heritage Site. Seven parks including Banff, Jasper, Kootenay, and Yoho showcasing stunning mountain landscapes.",https://whc.unesco.org/en/list/304,Canada,1984
OLD_QUEBEC,Historic District of Old Québec,UNESCO World Heritage Site (Cultural),Quebec,46.8139,-71.2080,"Historic District of Old Québec - UNESCO World Heritage Site. Only fortified city north of Mexico, preserving French colonial architecture and fortifications.",https://whc.unesco.org/en/list/300,Canada,1985
GROS_MORNE,Gros Morne National Park,UNESCO World Heritage Site (Natural),Newfoundland and Labrador,49.6833,-57.7833,"Gros Morne National Park - UNESCO World Heritage Site. Spectacular fjords, mountains, and geological formations showcasing plate tectonics.",https://whc.unesco.org/en/list/419,Canada,1987
LUNENBURG,Old Town Lunenburg,UNESCO World Heritage Site (Cultural),Nova Scotia,44.3775,-64.3092,"Old Town Lunenburg - UNESCO World Heritage Site. Best surviving example of a planned British colonial settlement in North America.",https://whc.unesco.org/en/list/741,Canada,1995
WATERTON,Waterton-Glacier International Peace Park,UNESCO World Heritage Site (Natural),Alberta,49.0500,-113.9000,"Waterton-Glacier International Peace Park - UNESCO World Heritage Site. Transboundary park combining Waterton Lakes (Canada) and Glacier (US) National Parks.",https://whc.unesco.org/en/list/354,Canada,1995
MIGUASHA,Miguasha National Park,UNESCO World Heritage Site (Natural),Quebec,48.1000,-66.3667,"Miguasha National Park - UNESCO World Heritage Site. Exceptional fossil site from the Devonian period, known as the 'Age of Fishes'.",https://whc.unesco.org/en/list/686,Canada,1999
RIDEAU,Rideau Canal,UNESCO World Heritage Site (Cultural),Ontario,45.4250,-75.6950,"Rideau Canal - UNESCO World Heritage Site. Best-preserved example of a slackwater canal in North America, built in the early 19th century.",https://whc.unesco.org/en/list/1221,Canada,2007
JOGGINS,Joggins Fossil Cliffs,UNESCO World Heritage Site (Natural),Nova Scotia,45.7000,-64.4500,"Joggins Fossil Cliffs - UNESCO World Heritage Site. Exceptional fossil record from the Carboniferous period, known as the 'Coal Age'.",https://whc.unesco.org/en/list/1285,Canada,2008
LANDSCAPE,Landscape of Grand Pré,UNESCO World Heritage Site (Cultural),Nova Scotia,45.1167,-64.3167,"Landscape of Grand Pré - UNESCO World Heritage Site. Agricultural landscape developed by Acadian settlers using innovative dyking techniques.",https://whc.unesco.org/en/list/1404,Canada,2012
RED_BAY,Red Bay Basque Whaling Station,UNESCO World Heritage Site (Cultural),Newfoundland and Labrador,51.7333,-56.4167,"Red Bay Basque Whaling Station - UNESCO World Heritage Site. Best-preserved example of 16th-century Basque whaling stations in North America.",https://whc.unesco.org/en/list/1412,Canada,2013
MISTAKEN,Mistaken Point,UNESCO World Heritage Site (Natural),Newfoundland and Labrador,46.6333,-53.1833,"Mistaken Point - UNESCO World Heritage Site. Exceptional fossil site containing the oldest known evidence of multicellular life on Earth.",https://whc.unesco.org/en/list/1497,Canada,2016
PIMACHIOWIN,Pimachiowin Aki,UNESCO World Heritage Site (Mixed),Manitoba,51.8333,-95.4167,"Pimachiowin Aki - UNESCO World Heritage Site. Boreal forest landscape managed by Anishinaabe First Nations, combining natural and cultural values.",https://whc.unesco.org/en/list/1415,Canada,2018
WRITING_ON_STONE,Writing-on-Stone / Áísínai'pi,UNESCO World Heritage Site (Cultural),Alberta,49.0833,-111.6167,"Writing-on-Stone / Áísínai'pi - UNESCO World Heritage Site. Sacred Blackfoot site with thousands of petroglyphs and pictographs.",https://whc.unesco.org/en/list/1597,Canada,2019
TR'ONDËK,Tr'ondëk-Klondike,UNESCO World Heritage Site (Cultural),Yukon,64.0667,-139.4333,"Tr'ondëk-Klondike - UNESCO World Heritage Site. Cultural landscape associated with the Klondike Gold Rush and Tr'ondëk Hwëch'in First Nation.",https://whc.unesco.org/en/list/1684,Canada,2023

